[
    {
      "orderId": "ORD001",
      "organizationName": "ABC Corp",
      "dateOrdered": "2024-01-15",
      "wasteType": "Plastic",
      "quantity": 1000,
      "status": "pending",
      "timeToDecay": "2024-02-10",
      "latitude": 37.7749,
      "longitude": -122.4194
    },
    {
      "orderId": "ORD002",
      "organizationName": "XYZ Corp",
      "dateOrdered": "2024-02-20",
      "wasteType": "Paper",
      "quantity": 500,
      "status": "pending",
      "timeToDecay": "2024-03-12",
      "latitude": 34.0522,
      "longitude": -118.2437
    },
    {
      "orderId": "ORD003",
      "organizationName": "DEF Corp",
      "dateOrdered": "2024-03-12",
      "wasteType": "Glass",
      "quantity": 750,
      "status": "pending",
      "timeToDecay": "2024-04-15",
      "latitude": 40.7128,
      "longitude": -74.0060
    },
    {
      "orderId": "ORD004",
      "organizationName": "GHI Corp",
      "dateOrdered": "2024-04-18",
      "wasteType": "Metal",
      "quantity": 300,
      "status": "pending",
      "timeToDecay": "2024-05-20",
      "latitude": 41.8781,
      "longitude": -87.6298
    },
    {
      "orderId": "ORD005",
      "organizationName": "JKL Corp",
      "dateOrdered": "2024-05-22",
      "wasteType": "Organic",
      "quantity": 200,
      "status": "pending",
      "timeToDecay": "2024-06-25",
      "latitude": 39.9526,
      "longitude": -75.1652
    },
    {
      "orderId": "ORD006",
      "organizationName": "MNO Corp",
      "dateOrdered": "2024-06-30",
      "wasteType": "Textile",
      "quantity": 600,
      "status": "pending",
      "timeToDecay": "2024-07-31",
      "latitude": 34.0522,
      "longitude": -118.2437
    },
    {
      "orderId": "ORD007",
      "organizationName": "PQR Corp",
      "dateOrdered": "2024-07-10",
      "wasteType": "Electronics",
      "quantity": 400,
      "status": "pending",
      "timeToDecay": "2024-08-20",
      "latitude": 40.7128,
      "longitude": -74.0060
    },
    {
      "orderId": "ORD008",
      "organizationName": "STU Corp",
      "dateOrdered": "2024-08-28",
      "wasteType": "Glass",
      "quantity": 800,
      "status": "pending",
      "timeToDecay": "2024-09-30",
      "latitude": 41.8781,
      "longitude": -87.6298
    },
    {
      "orderId": "ORD009",
      "organizationName": "VWX Corp",
      "dateOrdered": "2024-09-05",
      "wasteType": "Plastic",
      "quantity": 900,
      "status": "pending",
      "timeToDecay": "2024-10-10",
      "latitude": 37.7749,
      "longitude": -122.4194
    },
    {
      "orderId": "ORD010",
      "organizationName": "YZ Corp",
      "dateOrdered": "2024-10-15",
      "wasteType": "Paper",
      "quantity": 250,
      "status": "pending",
      "timeToDecay": "2024-11-20",
      "latitude": 39.9526,
      "longitude": -75.1652
    },
    {
      "orderId": "ORD011",
      "organizationName": "Alpha Corp",
      "dateOrdered": "2024-11-22",
      "wasteType": "Metal",
      "quantity": 700,
      "status": "pending",
      "timeToDecay": "2024-12-25",
      "latitude": 34.0522,
      "longitude": -118.2437
    },
    {
      "orderId": "ORD012",
      "organizationName": "Beta Corp",
      "dateOrdered": "2024-12-30",
      "wasteType": "Organic",
      "quantity": 150,
      "status": "pending",
      "timeToDecay": "2025-01-31",
      "latitude": 40.7128,
      "longitude": -74.0060
    }
  ]
  